[
    {
        "country": "RU", 
        "id": 519188, 
        "coord": {
            "lat": 55.683334, 
            "lon": 37.666668
        }, 
        "name": "Novinki"
    }, 
    {
        "country": "RU", 
        "id": 529334, 
        "coord": {
            "lat": 55.796391, 
            "lon": 37.611111
        }, 
        "name": "Mar\u2019ina Roshcha"
    }, 
    {
        "country": "RU", 
        "id": 473537, 
        "coord": {
            "lat": 55.423332, 
            "lon": 38.545555
        }, 
        "name": "Vinogradovo"
    }, 
    {
        "country": "RU", 
        "id": 569143, 
        "coord": {
            "lat": 55.800835, 
            "lon": 37.728889
        }, 
        "name": "Cherkizovo"
    }, 
    {
        "country": "RU", 
        "id": 464176, 
        "coord": {
            "lat": 56.049999, 
            "lon": 37.849998
        }, 
        "name": "Zavety Il\u2019icha"
    }, 
    {
        "country": "RU", 
        "id": 464737, 
        "coord": {
            "lat": 55.639999, 
            "lon": 38.861942
        }, 
        "name": "Zaponor\u2019ye"
    }, 
    {
        "country": "RU", 
        "id": 803611, 
        "coord": {
            "lat": 43.600555, 
            "lon": 39.934444
        }, 
        "name": "Yurevichi"
    }, 
    {
        "country": "RU", 
        "id": 2051302, 
        "coord": {
            "lat": 42.819168, 
            "lon": 132.822495
        }, 
        "name": "Priiskovyy"
    }, 
    {
        "country": "RU", 
        "id": 563692, 
        "coord": {
            "lat": 43.25, 
            "lon": 42.650002
        }, 
        "name": "Dzhaga"
    }, 
    {
        "country": "RU", 
        "id": 481725, 
        "coord": {
            "lat": 43.741943, 
            "lon": 39.681389
        }, 
        "name": "Tret\u2019ya Rota"
    }, 
    {
        "country": "RU", 
        "id": 2017370, 
        "coord": {
            "lat": 60, 
            "lon": 100
        }, 
        "name": "Russian Federation"
    }, 
    {
        "country": "RU", 
        "id": 2045761, 
        "coord": {
            "lat": 43.27861, 
            "lon": 131.991394
        }, 
        "name": "De-Friz"
    }, 
    {
        "country": "RU", 
        "id": 476350, 
        "coord": {
            "lat": 67.933334, 
            "lon": 34.916668
        }, 
        "name": "Vavibet"
    }, 
    {
        "country": "RU", 
        "id": 475279, 
        "coord": {
            "lat": 53, 
            "lon": 36.133331
        }, 
        "name": "Verkhneye Shchekotikhino"
    }, 
    {
        "country": "RU", 
        "id": 802899, 
        "coord": {
            "lat": 42.818859, 
            "lon": 47.660641
        }, 
        "name": "Mutaykutan"
    }, 
    {
        "country": "RU", 
        "id": 523523, 
        "coord": {
            "lat": 43.498058, 
            "lon": 43.618889
        }, 
        "name": "Nalchik"
    }, 
    {
        "country": "RU", 
        "id": 546448, 
        "coord": {
            "lat": 44.366669, 
            "lon": 40.066669
        }, 
        "name": "Kolganov"
    }, 
    {
        "country": "RU", 
        "id": 500023, 
        "coord": {
            "lat": 44.799171, 
            "lon": 44.166389
        }, 
        "name": "Rybatskiy"
    }, 
    {
        "country": "RU", 
        "id": 524894, 
        "coord": {
            "lat": 55.761665, 
            "lon": 37.606667
        }, 
        "name": "Moskva"
    }, 
    {
        "country": "RU", 
        "id": 494806, 
        "coord": {
            "lat": 55.98, 
            "lon": 37.491112
        }, 
        "name": "Sheremetyevskiy"
    }, 
    {
        "country": "RU", 
        "id": 467104, 
        "coord": {
            "lat": 55.771111, 
            "lon": 36.858055
        }, 
        "name": "Yershovo"
    }, 
    {
        "country": "RU", 
        "id": 462352, 
        "coord": {
            "lat": 52.896671, 
            "lon": 35.981392
        }, 
        "name": "Znamenka"
    }, 
    {
        "country": "RU", 
        "id": 524925, 
        "coord": {
            "lat": 55.75639, 
            "lon": 37.628334
        }, 
        "name": "Moskovskaya Oblast\u2019"
    }, 
    {
        "country": "RU", 
        "id": 510291, 
        "coord": {
            "lat": 59.883331, 
            "lon": 29.9
        }, 
        "name": "Peterhof"
    }, 
    {
        "country": "RU", 
        "id": 518858, 
        "coord": {
            "lat": 55.961945, 
            "lon": 38.072777
        }, 
        "name": "Grebnevo"
    }, 
    {
        "country": "RU", 
        "id": 499452, 
        "coord": {
            "lat": 55.150002, 
            "lon": 33.216671
        }, 
        "name": "Safonovo"
    }, 
    {
        "country": "RU", 
        "id": 2027487, 
        "coord": {
            "lat": 49.4212, 
            "lon": 130.084198
        }, 
        "name": "Arkhara"
    }, 
    {
        "country": "RU", 
        "id": 498817, 
        "coord": {
            "lat": 59.894444, 
            "lon": 30.264168
        }, 
        "name": "Saint Petersburg"
    }, 
    {
        "country": "RU", 
        "id": 539907, 
        "coord": {
            "lat": 43.494446, 
            "lon": 39.896389
        }, 
        "name": "Kudepsta"
    }, 
    {
        "country": "RU", 
        "id": 501847, 
        "coord": {
            "lat": 62.799999, 
            "lon": 43.25
        }, 
        "name": "Rochegda"
    }, 
    {
        "country": "RU", 
        "id": 569339, 
        "coord": {
            "lat": 51.885502, 
            "lon": 37.264599
        }, 
        "name": "Cheremisinovo"
    }, 
    {
        "country": "RU", 
        "id": 1496889, 
        "coord": {
            "lat": 54.841518, 
            "lon": 73.301743
        }, 
        "name": "Novoomskiy"
    }, 
    {
        "country": "RU", 
        "id": 487928, 
        "coord": {
            "lat": 51.296665, 
            "lon": 37.841667
        }, 
        "name": "Staryy Oskol"
    }, 
    {
        "country": "RU", 
        "id": 2013465, 
        "coord": {
            "lat": 67.544724, 
            "lon": 133.384995
        }, 
        "name": "Verkhoyansk"
    }, 
    {
        "country": "RU", 
        "id": 2127202, 
        "coord": {
            "lat": 64.75, 
            "lon": 177.483337
        }, 
        "name": "Anadyr"
    }, 
    {
        "country": "RU", 
        "id": 2122311, 
        "coord": {
            "lat": 63.466671, 
            "lon": 142.816666
        }, 
        "name": "Oymyakon"
    }, 
    {
        "country": "RU", 
        "id": 578652, 
        "coord": {
            "lat": 55.66, 
            "lon": 37.700001
        }, 
        "name": "Batyunino"
    }, 
    {
        "country": "RU", 
        "id": 583489, 
        "coord": {
            "lat": 55.200001, 
            "lon": 37.560001
        }, 
        "name": "Alachkovo"
    }, 
    {
        "country": "RU", 
        "id": 6417336, 
        "coord": {
            "lat": 55.553333, 
            "lon": 37.860279
        }, 
        "name": "Dal\u2019niye Prudishchi"
    }, 
    {
        "country": "RU", 
        "id": 520077, 
        "coord": {
            "lat": 55.683334, 
            "lon": 37.683334
        }, 
        "name": "Nagatino"
    }, 
    {
        "country": "RU", 
        "id": 467951, 
        "coord": {
            "lat": 55.416668, 
            "lon": 37.866669
        }, 
        "name": "Yelgazino"
    }, 
    {
        "country": "RU", 
        "id": 576721, 
        "coord": {
            "lat": 55.610001, 
            "lon": 37.790001
        }, 
        "name": "Besedy"
    }, 
    {
        "country": "RU", 
        "id": 470819, 
        "coord": {
            "lat": 55.695278, 
            "lon": 36.894444
        }, 
        "name": "Vvedenskoye"
    }, 
    {
        "country": "RU", 
        "id": 502018, 
        "coord": {
            "lat": 55.759445, 
            "lon": 37.861668
        }, 
        "name": "Reutov"
    }, 
    {
        "country": "RU", 
        "id": 538601, 
        "coord": {
            "lat": 55.578335, 
            "lon": 38.910831
        }, 
        "name": "Kurovskoye"
    }, 
    {
        "country": "RU", 
        "id": 820027, 
        "coord": {
            "lat": 55.818054, 
            "lon": 37.250278
        }, 
        "name": "Gorenosovo"
    }, 
    {
        "country": "RU", 
        "id": 560756, 
        "coord": {
            "lat": 55.612221, 
            "lon": 36.983334
        }, 
        "name": "Golitsyno"
    }, 
    {
        "country": "RU", 
        "id": 519690, 
        "coord": {
            "lat": 59.929432, 
            "lon": 30.290508
        }, 
        "name": "Novaya Gollandiya"
    }, 
    {
        "country": "RU", 
        "id": 536203, 
        "coord": {
            "lat": 59.916668, 
            "lon": 30.25
        }, 
        "name": "Sankt-Peterburg"
    }, 
    {
        "country": "RU", 
        "id": 531232, 
        "coord": {
            "lat": 59.933334, 
            "lon": 30.433332
        }, 
        "name": "Malaya Yablonovka"
    }, 
    {
        "country": "RU", 
        "id": 531483, 
        "coord": {
            "lat": 59.928333, 
            "lon": 30.4125
        }, 
        "name": "Malaya Okhta"
    }, 
    {
        "country": "RU", 
        "id": 521561, 
        "coord": {
            "lat": 56.150002, 
            "lon": 36.716667
        }, 
        "name": "Nikol\u2019skoye"
    }, 
    {
        "country": "RU", 
        "id": 537691, 
        "coord": {
            "lat": 56.133331, 
            "lon": 36.650002
        }, 
        "name": "Kuznetsovo"
    }, 
    {
        "country": "RU", 
        "id": 463666, 
        "coord": {
            "lat": 55.94389, 
            "lon": 36.771942
        }, 
        "name": "Zen\u2019kino"
    }, 
    {
        "country": "RU", 
        "id": 485279, 
        "coord": {
            "lat": 55.914165, 
            "lon": 36.822498
        }, 
        "name": "Sych\u00ebvka"
    }, 
    {
        "country": "RU", 
        "id": 6726099, 
        "coord": {
            "lat": 54.844013, 
            "lon": 37.512775
        }, 
        "name": "Vecheri"
    }, 
    {
        "country": "RU", 
        "id": 465825, 
        "coord": {
            "lat": 55.384167, 
            "lon": 37.785278
        }, 
        "name": "Zabor\u2019ye"
    }, 
    {
        "country": "RU", 
        "id": 485275, 
        "coord": {
            "lat": 55.061958, 
            "lon": 38.71384
        }, 
        "name": "Sychevo"
    }, 
    {
        "country": "RU", 
        "id": 499051, 
        "coord": {
            "lat": 43.290562, 
            "lon": 45.301392
        }, 
        "name": "Samashki"
    }, 
    {
        "country": "RU", 
        "id": 561534, 
        "coord": {
            "lat": 43.247219, 
            "lon": 46.4025
        }, 
        "name": "Gerzel-Aul"
    }, 
    {
        "country": "RU", 
        "id": 580299, 
        "coord": {
            "lat": 54.666672, 
            "lon": 55.716671
        }, 
        "name": "Avdon"
    }, 
    {
        "country": "RU", 
        "id": 6417711, 
        "coord": {
            "lat": 55.785831, 
            "lon": 37.851944
        }, 
        "name": "Pos\u00eblok Neftebazy"
    }, 
    {
        "country": "RU", 
        "id": 502069, 
        "coord": {
            "lat": 56.450001, 
            "lon": 36.566666
        }, 
        "name": "Reshetnikovo"
    }, 
    {
        "country": "RU", 
        "id": 480041, 
        "coord": {
            "lat": 57.009644, 
            "lon": 35.004879
        }, 
        "name": "Tverskaya Oblast\u2019"
    }, 
    {
        "country": "RU", 
        "id": 517183, 
        "coord": {
            "lat": 56.866669, 
            "lon": 37.366669
        }, 
        "name": "Novyye Ber\u00ebzki"
    }, 
    {
        "country": "RU", 
        "id": 509820, 
        "coord": {
            "lat": 61.784912, 
            "lon": 34.346909
        }, 
        "name": "Petrozavodsk"
    }, 
    {
        "country": "RU", 
        "id": 545633, 
        "coord": {
            "lat": 64.583336, 
            "lon": 30.6
        }, 
        "name": "Kondoka"
    }, 
    {
        "country": "RU", 
        "id": 547560, 
        "coord": {
            "lat": 55.364723, 
            "lon": 37.525002
        }, 
        "name": "Klimovsk"
    }, 
    {
        "country": "RU", 
        "id": 498349, 
        "coord": {
            "lat": 56.866669, 
            "lon": 37.366669
        }, 
        "name": "Sav\u00eblovo"
    }, 
    {
        "country": "RU", 
        "id": 513633, 
        "coord": {
            "lat": 65.116669, 
            "lon": 30.416668
        }, 
        "name": "Oynashniyemi"
    }, 
    {
        "country": "RU", 
        "id": 523110, 
        "coord": {
            "lat": 56.066666, 
            "lon": 36.616669
        }, 
        "name": "Nazarovo"
    }, 
    {
        "country": "RU", 
        "id": 507614, 
        "coord": {
            "lat": 56.033333, 
            "lon": 36.633331
        }, 
        "name": "Pokoyevo"
    }, 
    {
        "country": "RU", 
        "id": 498337, 
        "coord": {
            "lat": 56, 
            "lon": 36.599998
        }, 
        "name": "Savel\u2019yevo"
    }, 
    {
        "country": "RU", 
        "id": 565711, 
        "coord": {
            "lat": 55.993332, 
            "lon": 36.615833
        }, 
        "name": "Dolevo"
    }, 
    {
        "country": "RU", 
        "id": 538585, 
        "coord": {
            "lat": 55.978611, 
            "lon": 36.641666
        }, 
        "name": "Kursakovo-Markovo"
    }, 
    {
        "country": "RU", 
        "id": 562837, 
        "coord": {
            "lat": 55.973057, 
            "lon": 36.677223
        }, 
        "name": "Filatovo"
    }, 
    {
        "country": "RU", 
        "id": 561278, 
        "coord": {
            "lat": 55.955002, 
            "lon": 36.69389
        }, 
        "name": "Glebovo"
    }, 
    {
        "country": "RU", 
        "id": 571144, 
        "coord": {
            "lat": 55.952499, 
            "lon": 36.728889
        }, 
        "name": "Bukarevo"
    }, 
    {
        "country": "RU", 
        "id": 569406, 
        "coord": {
            "lat": 55.18222, 
            "lon": 37.491112
        }, 
        "name": "Chepel\u00ebvo"
    }, 
    {
        "country": "RU", 
        "id": 476368, 
        "coord": {
            "lat": 55.879723, 
            "lon": 37.686668
        }, 
        "name": "Vatutino"
    }, 
    {
        "country": "RU", 
        "id": 547379, 
        "coord": {
            "lat": 55.979168, 
            "lon": 37.834721
        }, 
        "name": "Klyaz\u2019ma"
    }, 
    {
        "country": "RU", 
        "id": 503978, 
        "coord": {
            "lat": 56.011112, 
            "lon": 37.833332
        }, 
        "name": "Pushkino"
    }, 
    {
        "country": "RU", 
        "id": 528211, 
        "coord": {
            "lat": 56.133331, 
            "lon": 37.916668
        }, 
        "name": "Mayskoye"
    }, 
    {
        "country": "RU", 
        "id": 463790, 
        "coord": {
            "lat": 56.283333, 
            "lon": 38.75
        }, 
        "name": "Zelentsino"
    }, 
    {
        "country": "RU", 
        "id": 532598, 
        "coord": {
            "lat": 56.083332, 
            "lon": 38.799999
        }, 
        "name": "Lyubimezh"
    }, 
    {
        "country": "RU", 
        "id": 473936, 
        "coord": {
            "lat": 55.950001, 
            "lon": 39
        }, 
        "name": "Vetchi"
    }, 
    {
        "country": "RU", 
        "id": 566950, 
        "coord": {
            "lat": 55.609722, 
            "lon": 38.856945
        }, 
        "name": "Davydovo"
    }, 
    {
        "country": "RU", 
        "id": 818493, 
        "coord": {
            "lat": 55.327499, 
            "lon": 36.699444
        }, 
        "name": "Shchekutina"
    }, 
    {
        "country": "RU", 
        "id": 818486, 
        "coord": {
            "lat": 55.261944, 
            "lon": 36.665001
        }, 
        "name": "Rogacheva"
    }, 
    {
        "country": "RU", 
        "id": 523186, 
        "coord": {
            "lat": 52.828056, 
            "lon": 34.49889
        }, 
        "name": "Navlya"
    }, 
    {
        "country": "RU", 
        "id": 818030, 
        "coord": {
            "lat": 55.306667, 
            "lon": 37.372501
        }, 
        "name": "Svitino"
    }, 
    {
        "country": "RU", 
        "id": 473353, 
        "coord": {
            "lat": 53.665558, 
            "lon": 41.81139
        }, 
        "name": "Vislyy Bor"
    }, 
    {
        "country": "RU", 
        "id": 6708894, 
        "coord": {
            "lat": 52.455254, 
            "lon": 47.502453
        }, 
        "name": "Burovka"
    }, 
    {
        "country": "RU", 
        "id": 478203, 
        "coord": {
            "lat": 52.049999, 
            "lon": 48.700001
        }, 
        "name": "Uspenskiy"
    }, 
    {
        "country": "RU", 
        "id": 474751, 
        "coord": {
            "lat": 48.771667, 
            "lon": 44.790001
        }, 
        "name": "Verkhnyaya Akhtuba"
    }, 
    {
        "country": "RU", 
        "id": 462970, 
        "coord": {
            "lat": 55.601944, 
            "lon": 38.540558
        }, 
        "name": "Zhirovo"
    }, 
    {
        "country": "RU", 
        "id": 576263, 
        "coord": {
            "lat": 55.783054, 
            "lon": 38.115833
        }, 
        "name": "Biserovo"
    }, 
    {
        "country": "RU", 
        "id": 471980, 
        "coord": {
            "lat": 62.183334, 
            "lon": 35.5
        }, 
        "name": "Voroniy Ostrov"
    }, 
    {
        "country": "RU", 
        "id": 572275, 
        "coord": {
            "lat": 56.316666, 
            "lon": 36.733334
        }, 
        "name": "Borodino"
    }, 
    {
        "country": "RU", 
        "id": 481603, 
        "coord": {
            "lat": 59.916668, 
            "lon": 29.75
        }, 
        "name": "Troitskaya"
    }, 
    {
        "country": "RU", 
        "id": 560455, 
        "coord": {
            "lat": 55.799721, 
            "lon": 37.31139
        }, 
        "name": "Gol\u2019yevo"
    }, 
    {
        "country": "RU", 
        "id": 471748, 
        "coord": {
            "lat": 56.049999, 
            "lon": 38.166668
        }, 
        "name": "Vorya-Bogorodskoye"
    }, 
    {
        "country": "RU", 
        "id": 495619, 
        "coord": {
            "lat": 58.36861, 
            "lon": 45.514442
        }, 
        "name": "Sharya"
    }, 
    {
        "country": "RU", 
        "id": 572248, 
        "coord": {
            "lat": 56.650002, 
            "lon": 42.883331
        }, 
        "name": "Borodulino"
    }, 
    {
        "country": "RU", 
        "id": 527451, 
        "coord": {
            "lat": 54.642776, 
            "lon": 39.669998
        }, 
        "name": "Mervino"
    }, 
    {
        "country": "RU", 
        "id": 6198157, 
        "coord": {
            "lat": 56.176388, 
            "lon": 47.899166
        }, 
        "name": "Yalpay"
    }, 
    {
        "country": "RU", 
        "id": 6198533, 
        "coord": {
            "lat": 56.197498, 
            "lon": 47.786667
        }, 
        "name": "Puchina"
    }, 
    {
        "country": "RU", 
        "id": 491687, 
        "coord": {
            "lat": 54.781666, 
            "lon": 32.040001
        }, 
        "name": "Smolensk"
    }, 
    {
        "country": "RU", 
        "id": 467030, 
        "coord": {
            "lat": 60.733334, 
            "lon": 46.366669
        }, 
        "name": "Yesiplevo"
    }, 
    {
        "country": "RU", 
        "id": 823660, 
        "coord": {
            "lat": 43.623333, 
            "lon": 39.816666
        }, 
        "name": "Verkhovskoye"
    }, 
    {
        "country": "RU", 
        "id": 567322, 
        "coord": {
            "lat": 43.631111, 
            "lon": 40.085278
        }, 
        "name": "Chvizhepse"
    }, 
    {
        "country": "RU", 
        "id": 542681, 
        "coord": {
            "lat": 43.675835, 
            "lon": 40.207222
        }, 
        "name": "Krasnaya Polyana"
    }, 
    {
        "country": "RU", 
        "id": 823675, 
        "coord": {
            "lat": 43.676945, 
            "lon": 39.636665
        }, 
        "name": "Kul\u2019turnoye Uchdere"
    }, 
    {
        "country": "RU", 
        "id": 805597, 
        "coord": {
            "lat": 43.673889, 
            "lon": 39.704723
        }, 
        "name": "Sergey-Pole"
    }, 
    {
        "country": "RU", 
        "id": 805616, 
        "coord": {
            "lat": 43.707222, 
            "lon": 39.7775
        }, 
        "name": "Nizhneye Orekhovo"
    }, 
    {
        "country": "RU", 
        "id": 805557, 
        "coord": {
            "lat": 43.772499, 
            "lon": 39.711109
        }, 
        "name": "Vtoraya Rota"
    }, 
    {
        "country": "RU", 
        "id": 805559, 
        "coord": {
            "lat": 43.782501, 
            "lon": 39.630001
        }, 
        "name": "Verkhnerusskaya Khobza"
    }, 
    {
        "country": "RU", 
        "id": 823556, 
        "coord": {
            "lat": 43.794167, 
            "lon": 39.638889
        }, 
        "name": "Khartsiz Pervyy"
    }, 
    {
        "country": "RU", 
        "id": 490936, 
        "coord": {
            "lat": 43.799442, 
            "lon": 39.678055
        }, 
        "name": "Solokhaul"
    }, 
    {
        "country": "RU", 
        "id": 570140, 
        "coord": {
            "lat": 43.812778, 
            "lon": 39.718613
        }, 
        "name": "Bzogu"
    }, 
    {
        "country": "RU", 
        "id": 501043, 
        "coord": {
            "lat": 43.86639, 
            "lon": 39.583889
        }, 
        "name": "Rozhdestvenskiy"
    }, 
    {
        "country": "RU", 
        "id": 804366, 
        "coord": {
            "lat": 44.304443, 
            "lon": 40.099167
        }, 
        "name": "-"
    }, 
    {
        "country": "RU", 
        "id": 530631, 
        "coord": {
            "lat": 54.916668, 
            "lon": 38.150002
        }, 
        "name": "Maloye Obraztsovo"
    }, 
    {
        "country": "RU", 
        "id": 481501, 
        "coord": {
            "lat": 55.193054, 
            "lon": 35.917778
        }, 
        "name": "Troitskoye"
    }, 
    {
        "country": "RU", 
        "id": 2048736, 
        "coord": {
            "lat": 43.227501, 
            "lon": 131.984161
        }, 
        "name": "Sanatornaya"
    }, 
    {
        "country": "RU", 
        "id": 554667, 
        "coord": {
            "lat": 43.5, 
            "lon": 43.5
        }, 
        "name": "Kabardino-Balkarskaya Respublika"
    }, 
    {
        "country": "RU", 
        "id": 516981, 
        "coord": {
            "lat": 43.247223, 
            "lon": 42.50111
        }, 
        "name": "Novyy Krugozor"
    }, 
    {
        "country": "RU", 
        "id": 2014571, 
        "coord": {
            "lat": 43.328888, 
            "lon": 132.09166
        }, 
        "name": "Uglovoye"
    }, 
    {
        "country": "RU", 
        "id": 2021956, 
        "coord": {
            "lat": 43.399166, 
            "lon": 132.180283
        }, 
        "name": "Knevichi"
    }, 
    {
        "country": "RU", 
        "id": 584243, 
        "coord": {
            "lat": 43.43, 
            "lon": 39.919998
        }, 
        "name": "Adler"
    }, 
    {
        "country": "RU", 
        "id": 823631, 
        "coord": {
            "lat": 43.810555, 
            "lon": 39.565834
        }, 
        "name": "Yakornaya Shchel'"
    }, 
    {
        "country": "RU", 
        "id": 584003, 
        "coord": {
            "lat": 44.139999, 
            "lon": 39.029999
        }, 
        "name": "Agoy"
    }, 
    {
        "country": "RU", 
        "id": 501165, 
        "coord": {
            "lat": 47, 
            "lon": 42
        }, 
        "name": "Rostovskaya Oblast\u2019"
    }, 
    {
        "country": "RU", 
        "id": 553428, 
        "coord": {
            "lat": 47.279446, 
            "lon": 39.696945
        }, 
        "name": "-"
    }, 
    {
        "country": "RU", 
        "id": 2013229, 
        "coord": {
            "lat": 47.537777, 
            "lon": 134.752502
        }, 
        "name": "Vyazemskiy"
    }, 
    {
        "country": "RU", 
        "id": 797077, 
        "coord": {
            "lat": 48.698891, 
            "lon": 40.347221
        }, 
        "name": "Popovka"
    }, 
    {
        "country": "RU", 
        "id": 798056, 
        "coord": {
            "lat": 48.735001, 
            "lon": 44.862778
        }, 
        "name": "-"
    }, 
    {
        "country": "RU", 
        "id": 472045, 
        "coord": {
            "lat": 51.666389, 
            "lon": 39.169998
        }, 
        "name": "Voronezh"
    }, 
    {
        "country": "RU", 
        "id": 575343, 
        "coord": {
            "lat": 54.093613, 
            "lon": 37.818333
        }, 
        "name": "Bolokhovo"
    }, 
    {
        "country": "RU", 
        "id": 819162, 
        "coord": {
            "lat": 54.726112, 
            "lon": 38.533611
        }, 
        "name": "Voslinka"
    }, 
    {
        "country": "RU", 
        "id": 524304, 
        "coord": {
            "lat": 68, 
            "lon": 34
        }, 
        "name": "Murmanskaya Oblast\u2019"
    }, 
    {
        "country": "RU", 
        "id": 528562, 
        "coord": {
            "lat": 61.783333, 
            "lon": 33.799999
        }, 
        "name": "Matrosy"
    }, 
    {
        "country": "RU", 
        "id": 554230, 
        "coord": {
            "lat": 54.75, 
            "lon": 21.5
        }, 
        "name": "Kaliningradskaya Oblast\u2019"
    }, 
    {
        "country": "RU", 
        "id": 826279, 
        "coord": {
            "lat": 54.920555, 
            "lon": 20.156389
        }, 
        "name": "Gorbatovka"
    }, 
    {
        "country": "RU", 
        "id": 826278, 
        "coord": {
            "lat": 54.92889, 
            "lon": 20.156944
        }, 
        "name": "Prigorodnyy"
    }, 
    {
        "country": "RU", 
        "id": 2609894, 
        "coord": {
            "lat": 54.871666, 
            "lon": 19.938057
        }, 
        "name": "Yantarnyy"
    }, 
    {
        "country": "RU", 
        "id": 873882, 
        "coord": {
            "lat": 60.077499, 
            "lon": 30.320557
        }, 
        "name": "Torfyanoye"
    }, 
    {
        "country": "RU", 
        "id": 563249, 
        "coord": {
            "lat": 53.004723, 
            "lon": 36.147499
        }, 
        "name": "Fedoreyevka"
    }, 
    {
        "country": "RU", 
        "id": 524844, 
        "coord": {
            "lat": 52.99139, 
            "lon": 36.156666
        }, 
        "name": "Mostki"
    }, 
    {
        "country": "RU", 
        "id": 504849, 
        "coord": {
            "lat": 52.983334, 
            "lon": 36.133331
        }, 
        "name": "Prokurovka"
    }, 
    {
        "country": "RU", 
        "id": 463043, 
        "coord": {
            "lat": 52.983334, 
            "lon": 36.083332
        }, 
        "name": "Zhilina"
    }, 
    {
        "country": "RU", 
        "id": 515012, 
        "coord": {
            "lat": 52.965832, 
            "lon": 36.080276
        }, 
        "name": "Orel"
    }, 
    {
        "country": "RU", 
        "id": 498093, 
        "coord": {
            "lat": 54.866669, 
            "lon": 38.01667
        }, 
        "name": "Saygatovo"
    }, 
    {
        "country": "RU", 
        "id": 559229, 
        "coord": {
            "lat": 50.779449, 
            "lon": 36.655159
        }, 
        "name": "Gostishchevo"
    }, 
    {
        "country": "RU", 
        "id": 543138, 
        "coord": {
            "lat": 54.790001, 
            "lon": 35.196388
        }, 
        "name": "Kozlovka"
    }, 
    {
        "country": "RU", 
        "id": 525713, 
        "coord": {
            "lat": 54.759441, 
            "lon": 35.23056
        }, 
        "name": "Mokroye"
    }, 
    {
        "country": "RU", 
        "id": 817438, 
        "coord": {
            "lat": 54.775002, 
            "lon": 35.261669
        }, 
        "name": "Podbor\u2019ye"
    }, 
    {
        "country": "RU", 
        "id": 538108, 
        "coord": {
            "lat": 54.78056, 
            "lon": 35.275829
        }, 
        "name": "Kuvshinovo"
    }, 
    {
        "country": "RU", 
        "id": 545992, 
        "coord": {
            "lat": 54.763062, 
            "lon": 35.285
        }, 
        "name": "Kolykhmanovo"
    }, 
    {
        "country": "RU", 
        "id": 483269, 
        "coord": {
            "lat": 43.25528, 
            "lon": 42.515282
        }, 
        "name": "Terskol"
    }, 
    {
        "country": "RU", 
        "id": 1541618, 
        "coord": {
            "lat": 55.032219, 
            "lon": 82.859718
        }, 
        "name": "Zaton"
    }, 
    {
        "country": "RU", 
        "id": 2014927, 
        "coord": {
            "lat": 54.561111, 
            "lon": 100.57917
        }, 
        "name": "Tulun"
    }, 
    {
        "country": "RU", 
        "id": 2018046, 
        "coord": {
            "lat": 54.549999, 
            "lon": 100.633331
        }, 
        "name": "Perevoz"
    }, 
    {
        "country": "RU", 
        "id": 2052144, 
        "coord": {
            "lat": 54.509171, 
            "lon": 100.76667
        }, 
        "name": "Azey"
    }, 
    {
        "country": "RU", 
        "id": 2027288, 
        "coord": {
            "lat": 54.452782, 
            "lon": 100.791672
        }, 
        "name": "Azey"
    }, 
    {
        "country": "RU", 
        "id": 2016742, 
        "coord": {
            "lat": 54.451389, 
            "lon": 100.89389
        }, 
        "name": "Sheragul"
    }, 
    {
        "country": "RU", 
        "id": 2018854, 
        "coord": {
            "lat": 54.45472, 
            "lon": 101.044998
        }, 
        "name": "Novotroitsk"
    }, 
    {
        "country": "RU", 
        "id": 2015082, 
        "coord": {
            "lat": 54.481392, 
            "lon": 101.058891
        }, 
        "name": "Traktovaya"
    }, 
    {
        "country": "RU", 
        "id": 2014917, 
        "coord": {
            "lat": 54.458328, 
            "lon": 101.169998
        }, 
        "name": "Tulyushka"
    }, 
    {
        "country": "RU", 
        "id": 2019963, 
        "coord": {
            "lat": 54.431938, 
            "lon": 101.301392
        }, 
        "name": "Mingatuy"
    }, 
    {
        "country": "RU", 
        "id": 2052150, 
        "coord": {
            "lat": 54.34972, 
            "lon": 101.371109
        }, 
        "name": "Yelanskiy"
    }, 
    {
        "country": "RU", 
        "id": 2021093, 
        "coord": {
            "lat": 54.341942, 
            "lon": 101.503609
        }, 
        "name": "Kuytun"
    }, 
    {
        "country": "RU", 
        "id": 2023085, 
        "coord": {
            "lat": 54.316669, 
            "lon": 101.583328
        }, 
        "name": "Kas\u2019yanovka"
    }, 
    {
        "country": "RU", 
        "id": 804310, 
        "coord": {
            "lat": 45.098061, 
            "lon": 42.088329
        }, 
        "name": "Tashlinskiy"
    }, 
    {
        "country": "RU", 
        "id": 518310, 
        "coord": {
            "lat": 46.299999, 
            "lon": 47.98333
        }, 
        "name": "Novo-Pokrovskoye"
    }, 
    {
        "country": "RU", 
        "id": 804751, 
        "coord": {
            "lat": 46.38694, 
            "lon": 44.338058
        }, 
        "name": "Salyno-Khulsunskiye"
    }, 
    {
        "country": "RU", 
        "id": 2121529, 
        "coord": {
            "lat": 50, 
            "lon": 143
        }, 
        "name": "Sakhalinskaya Oblast\u2019"
    }, 
    {
        "country": "RU", 
        "id": 2124604, 
        "coord": {
            "lat": 46.885979, 
            "lon": 142.744431
        }, 
        "name": "Khomutovo"
    }, 
    {
        "country": "RU", 
        "id": 8144372, 
        "coord": {
            "lat": 47.252258, 
            "lon": 39.835018
        }, 
        "name": "Kirlichnyy"
    }, 
    {
        "country": "RU", 
        "id": 2020162, 
        "coord": {
            "lat": 48.548889, 
            "lon": 135.190002
        }, 
        "name": "Matveyevka"
    }, 
    {
        "country": "RU", 
        "id": 560399, 
        "coord": {
            "lat": 48.794998, 
            "lon": 44.355831
        }, 
        "name": "Gonchary"
    }, 
    {
        "country": "RU", 
        "id": 2024173, 
        "coord": {
            "lat": 49.25, 
            "lon": 136.366669
        }, 
        "name": "Gardami"
    }, 
    {
        "country": "RU", 
        "id": 2027748, 
        "coord": {
            "lat": 54, 
            "lon": 128
        }, 
        "name": "Amurskaya Oblast\u2019"
    }, 
    {
        "country": "RU", 
        "id": 809954, 
        "coord": {
            "lat": 51.79583, 
            "lon": 36.294331
        }, 
        "name": "Muralevo"
    }, 
    {
        "country": "RU", 
        "id": 483828, 
        "coord": {
            "lat": 55.94083, 
            "lon": 37.844719
        }, 
        "name": "Tekstil\u2019shchik"
    }, 
    {
        "country": "RU", 
        "id": 1495797, 
        "coord": {
            "lat": 55.9575, 
            "lon": 92.551941
        }, 
        "name": "Ovsyanka"
    }, 
    {
        "country": "RU", 
        "id": 1509223, 
        "coord": {
            "lat": 56.719501, 
            "lon": 60.783298
        }, 
        "name": "Bol\u2019shoy Istok"
    }, 
    {
        "country": "RU", 
        "id": 2013727, 
        "coord": {
            "lat": 60.34, 
            "lon": 102.279716
        }, 
        "name": "Vanavara"
    }, 
    {
        "country": "RU", 
        "id": 2020221, 
        "coord": {
            "lat": 62.105282, 
            "lon": 129.726944
        }, 
        "name": "Markha"
    }, 
    {
        "country": "RU", 
        "id": 817409, 
        "coord": {
            "lat": 55.05442, 
            "lon": 37.807701
        }, 
        "name": "Kravtsovo"
    }, 
    {
        "country": "RU", 
        "id": 488839, 
        "coord": {
            "lat": 45.47599, 
            "lon": 38.296799
        }, 
        "name": "Starodzhereliyevskaya"
    }, 
    {
        "country": "RU", 
        "id": 498698, 
        "coord": {
            "lat": 54.1838, 
            "lon": 45.1749
        }, 
        "name": "Saransk"
    }, 
    {
        "country": "RU", 
        "id": 552252, 
        "coord": {
            "lat": 49.683331, 
            "lon": 46.183331
        }, 
        "name": "Karpov"
    }, 
    {
        "country": "RU", 
        "id": 527191, 
        "coord": {
            "lat": 52.8978, 
            "lon": 40.4907
        }, 
        "name": "Michurinsk"
    }, 
    {
        "country": "RU", 
        "id": 1497337, 
        "coord": {
            "lat": 69.3535, 
            "lon": 88.202698
        }, 
        "name": "Norilsk"
    }, 
    {
        "country": "RU", 
        "id": 2123628, 
        "coord": {
            "lat": 59.566669, 
            "lon": 150.800003
        }, 
        "name": "Magadan"
    }, 
    {
        "country": "RU", 
        "id": 2119441, 
        "coord": {
            "lat": 46.958118, 
            "lon": 142.733658
        }, 
        "name": "Yuzhno-Sakhalinsk"
    }, 
    {
        "country": "RU", 
        "id": 1493870, 
        "coord": {
            "lat": 56.952259, 
            "lon": 63.251289
        }, 
        "name": "Pyshma"
    }, 
    {
        "country": "RU", 
        "id": 553287, 
        "coord": {
            "lat": 50.098331, 
            "lon": 45.416012
        }, 
        "name": "Kamyshin"
    }, 
    {
        "country": "RU", 
        "id": 1511736, 
        "coord": {
            "lat": 51.953331, 
            "lon": 85.332497
        }, 
        "name": "Altayskoye"
    }, 
    {
        "country": "RU", 
        "id": 512047, 
        "coord": {
            "lat": 59.566669, 
            "lon": 30.133329
        }, 
        "name": "Pavlovskaya"
    }, 
    {
        "country": "RU", 
        "id": 489271, 
        "coord": {
            "lat": 53.623619, 
            "lon": 34.151829
        }, 
        "name": "Star"
    }, 
    {
        "country": "RU", 
        "id": 548408, 
        "coord": {
            "lat": 58.596649, 
            "lon": 49.660069
        }, 
        "name": "Kirov"
    }, 
    {
        "country": "RU", 
        "id": 6864865, 
        "coord": {
            "lat": 54.583801, 
            "lon": 86.145401
        }, 
        "name": "Sverdlovskiy"
    }, 
    {
        "country": "RU", 
        "id": 472328, 
        "coord": {
            "lat": 57.92778, 
            "lon": 30.702499
        }, 
        "name": "Volot"
    }, 
    {
        "country": "RU", 
        "id": 471323, 
        "coord": {
            "lat": 59.528671, 
            "lon": 29.963961
        }, 
        "name": "Voyskovitsy"
    }, 
    {
        "country": "RU", 
        "id": 501296, 
        "coord": {
            "lat": 60.251911, 
            "lon": 29.6085
        }, 
        "name": "Roshchino"
    }, 
    {
        "country": "RU", 
        "id": 534841, 
        "coord": {
            "lat": 60.016861, 
            "lon": 30.020081
        }, 
        "name": "Lisiy Nos"
    }, 
    {
        "country": "RU", 
        "id": 1494326, 
        "coord": {
            "lat": 56.234989, 
            "lon": 66.071068
        }, 
        "name": "Pospelova"
    }, 
    {
        "country": "RU", 
        "id": 1506418, 
        "coord": {
            "lat": 53.417198, 
            "lon": 83.574699
        }, 
        "name": "Gonba"
    }, 
    {
        "country": "RU", 
        "id": 1506676, 
        "coord": {
            "lat": 59.43074, 
            "lon": 62.34967
        }, 
        "name": "Gari"
    }, 
    {
        "country": "RU", 
        "id": 1506938, 
        "coord": {
            "lat": 50.261002, 
            "lon": 95.1623
        }, 
        "name": "Erzin"
    }, 
    {
        "country": "RU", 
        "id": 1507172, 
        "coord": {
            "lat": 55.619171, 
            "lon": 89.09111
        }, 
        "name": "Dubinino"
    }, 
    {
        "country": "RU", 
        "id": 1507638, 
        "coord": {
            "lat": 57.446671, 
            "lon": 97.321671
        }, 
        "name": "Chunoyar"
    }, 
    {
        "country": "RU", 
        "id": 1507745, 
        "coord": {
            "lat": 52.010799, 
            "lon": 86.5467
        }, 
        "name": "Choya"
    }, 
    {
        "country": "RU", 
        "id": 1507801, 
        "coord": {
            "lat": 53.983501, 
            "lon": 87.3843
        }, 
        "name": "Chistogorskiy"
    }, 
    {
        "country": "RU", 
        "id": 1507926, 
        "coord": {
            "lat": 53.811111, 
            "lon": 60.653332
        }, 
        "name": "Chesma"
    }, 
    {
        "country": "RU", 
        "id": 1508636, 
        "coord": {
            "lat": 53.336201, 
            "lon": 78.330101
        }, 
        "name": "Burla"
    }, 
    {
        "country": "RU", 
        "id": 1510131, 
        "coord": {
            "lat": 53.053329, 
            "lon": 90.913887
        }, 
        "name": "Beya"
    }, 
    {
        "country": "RU", 
        "id": 1510370, 
        "coord": {
            "lat": 58.444721, 
            "lon": 85.042503
        }, 
        "name": "Belyy Yar"
    }, 
    {
        "country": "RU", 
        "id": 1510817, 
        "coord": {
            "lat": 55.716671, 
            "lon": 86.316673
        }, 
        "name": "Barzas"
    }, 
    {
        "country": "RU", 
        "id": 463885, 
        "coord": {
            "lat": 43.85804, 
            "lon": 41.589401
        }, 
        "name": "Zelenchukskaya"
    }, 
    {
        "country": "RU", 
        "id": 490466, 
        "coord": {
            "lat": 61.705318, 
            "lon": 30.69178
        }, 
        "name": "Sortavala"
    }, 
    {
        "country": "RU", 
        "id": 491882, 
        "coord": {
            "lat": 58.73222, 
            "lon": 50.177219
        }, 
        "name": "Slobodskoy"
    }, 
    {
        "country": "RU", 
        "id": 494427, 
        "coord": {
            "lat": 54.3204, 
            "lon": 40.874001
        }, 
        "name": "Shilovo"
    }, 
    {
        "country": "RU", 
        "id": 505421, 
        "coord": {
            "lat": 51.684059, 
            "lon": 39.072701
        }, 
        "name": "Pridonskoy"
    }, 
    {
        "country": "RU", 
        "id": 515804, 
        "coord": {
            "lat": 43.23806, 
            "lon": 46.001671
        }, 
        "name": "Tsotsin-Yurt"
    }, 
    {
        "country": "RU", 
        "id": 526346, 
        "coord": {
            "lat": 61.33289, 
            "lon": 44.53598
        }, 
        "name": "Mirnyy"
    }, 
    {
        "country": "RU", 
        "id": 534838, 
        "coord": {
            "lat": 50.984051, 
            "lon": 39.51545
        }, 
        "name": "Liski"
    }, 
    {
        "country": "RU", 
        "id": 563551, 
        "coord": {
            "lat": 43.212219, 
            "lon": 44.823059
        }, 
        "name": "Ekazhevo"
    }, 
    {
        "country": "RU", 
        "id": 584298, 
        "coord": {
            "lat": 43.189999, 
            "lon": 45.279999
        }, 
        "name": "Achkhoy-Martan"
    }, 
    {
        "country": "RU", 
        "id": 841006, 
        "coord": {
            "lat": 44.644169, 
            "lon": 41.84528
        }, 
        "name": "Kochubeyevskoye"
    }, 
    {
        "country": "RU", 
        "id": 1486468, 
        "coord": {
            "lat": 56.65358, 
            "lon": 66.300583
        }, 
        "name": "Yalutorovsk"
    }, 
    {
        "country": "RU", 
        "id": 1490277, 
        "coord": {
            "lat": 56.880402, 
            "lon": 60.021301
        }, 
        "name": "Talitsa"
    }, 
    {
        "country": "RU", 
        "id": 1499163, 
        "coord": {
            "lat": 52.019718, 
            "lon": 85.911392
        }, 
        "name": "Mayma"
    }, 
    {
        "country": "RU", 
        "id": 1541359, 
        "coord": {
            "lat": 61.61945, 
            "lon": 72.155457
        }, 
        "name": "Lyantor"
    }, 
    {
        "country": "RU", 
        "id": 2021066, 
        "coord": {
            "lat": 50.35083, 
            "lon": 106.44944
        }, 
        "name": "Kyakhta"
    }, 
    {
        "country": "RU", 
        "id": 7289676, 
        "coord": {
            "lat": 61.719818, 
            "lon": 75.368271
        }, 
        "name": "Pokachi"
    }, 
    {
        "country": "RU", 
        "id": 511865, 
        "coord": {
            "lat": 69.525871, 
            "lon": 31.170271
        }, 
        "name": "Pechenga"
    }, 
    {
        "country": "RU", 
        "id": 1506499, 
        "coord": {
            "lat": 54.907501, 
            "lon": 65.088333
        }, 
        "name": "Glyadyanskoye"
    }, 
    {
        "country": "RU", 
        "id": 1506834, 
        "coord": {
            "lat": 56.201111, 
            "lon": 95.461113
        }, 
        "name": "Filimonovo"
    }, 
    {
        "country": "RU", 
        "id": 1507035, 
        "coord": {
            "lat": 56.834438, 
            "lon": 95.228333
        }, 
        "name": "Dzerzhinskoye"
    }, 
    {
        "country": "RU", 
        "id": 1507300, 
        "coord": {
            "lat": 55.34444, 
            "lon": 61.34444
        }, 
        "name": "Dolgoderevenskoye"
    }, 
    {
        "country": "RU", 
        "id": 1507679, 
        "coord": {
            "lat": 55.09972, 
            "lon": 80.957222
        }, 
        "name": "Chulym"
    }, 
    {
        "country": "RU", 
        "id": 1507934, 
        "coord": {
            "lat": 56.94635, 
            "lon": 65.427818
        }, 
        "name": "Chervishevo"
    }, 
    {
        "country": "RU", 
        "id": 1508177, 
        "coord": {
            "lat": 52.83556, 
            "lon": 91.39444
        }, 
        "name": "Cheremushki"
    }, 
    {
        "country": "RU", 
        "id": 1508217, 
        "coord": {
            "lat": 56.119202, 
            "lon": 60.26804
        }, 
        "name": "Cheremshanka"
    }, 
    {
        "country": "RU", 
        "id": 1508230, 
        "coord": {
            "lat": 53.16972, 
            "lon": 83.213333
        }, 
        "name": "Cheremnoye"
    }, 
    {
        "country": "RU", 
        "id": 1508260, 
        "coord": {
            "lat": 56.951389, 
            "lon": 90.666107
        }, 
        "name": "Novobirilyussy"
    }, 
    {
        "country": "RU", 
        "id": 1508285, 
        "coord": {
            "lat": 51.41111, 
            "lon": 86.004997
        }, 
        "name": "Chemal"
    }, 
    {
        "country": "RU", 
        "id": 1508427, 
        "coord": {
            "lat": 51.3978, 
            "lon": 83.559799
        }, 
        "name": "Charyshskoye"
    }, 
    {
        "country": "RU", 
        "id": 1508458, 
        "coord": {
            "lat": 55.31205, 
            "lon": 76.764679
        }, 
        "name": "Chany"
    }, 
    {
        "country": "RU", 
        "id": 1508501, 
        "coord": {
            "lat": 51.283329, 
            "lon": 91.583328
        }, 
        "name": "Chadan"
    }, 
    {
        "country": "RU", 
        "id": 1508517, 
        "coord": {
            "lat": 52.370998, 
            "lon": 84.387299
        }, 
        "name": "Bystryy Istok"
    }, 
    {
        "country": "RU", 
        "id": 1508894, 
        "coord": {
            "lat": 55.433331, 
            "lon": 86.083328
        }, 
        "name": "Borovoy"
    }, 
    {
        "country": "RU", 
        "id": 1508918, 
        "coord": {
            "lat": 53.507198, 
            "lon": 83.837898
        }, 
        "name": "Borovikha"
    }, 
    {
        "country": "RU", 
        "id": 1509008, 
        "coord": {
            "lat": 61.601109, 
            "lon": 90.018059
        }, 
        "name": "Podkamennaya Tunguska"
    }, 
    {
        "country": "RU", 
        "id": 1509494, 
        "coord": {
            "lat": 56.092522, 
            "lon": 74.627159
        }, 
        "name": "Bolsherechye"
    }, 
    {
        "country": "RU", 
        "id": 1509929, 
        "coord": {
            "lat": 56.673199, 
            "lon": 60.980701
        }, 
        "name": "Bobrovskiy"
    }, 
    {
        "country": "RU", 
        "id": 1509955, 
        "coord": {
            "lat": 54.047001, 
            "lon": 61.745499
        }, 
        "name": "Bobrovka"
    }, 
    {
        "country": "RU", 
        "id": 1509958, 
        "coord": {
            "lat": 53.183609, 
            "lon": 83.876389
        }, 
        "name": "Bobrovka"
    }, 
    {
        "country": "RU", 
        "id": 1509999, 
        "coord": {
            "lat": 52.833328, 
            "lon": 79.866669
        }, 
        "name": "Blagoveshchenka"
    }, 
    {
        "country": "RU", 
        "id": 1510030, 
        "coord": {
            "lat": 53.449718, 
            "lon": 89.527222
        }, 
        "name": "Biskamzha"
    }, 
    {
        "country": "RU", 
        "id": 1510214, 
        "coord": {
            "lat": 63.938061, 
            "lon": 65.041939
        }, 
        "name": "Berezovo"
    }, 
    {
        "country": "RU", 
        "id": 1510335, 
        "coord": {
            "lat": 55.173012, 
            "lon": 73.219841
        }, 
        "name": "Beregovoy"
    }, 
    {
        "country": "RU", 
        "id": 1510377, 
        "coord": {
            "lat": 53.603889, 
            "lon": 91.390282
        }, 
        "name": "Belyy Yar"
    }, 
    {
        "country": "RU", 
        "id": 1510395, 
        "coord": {
            "lat": 49.73333, 
            "lon": 87.416672
        }, 
        "name": "Belyashi"
    }, 
    {
        "country": "RU", 
        "id": 1510421, 
        "coord": {
            "lat": 55.821388, 
            "lon": 65.584167
        }, 
        "name": "Belozerskoye"
    }, 
    {
        "country": "RU", 
        "id": 1510451, 
        "coord": {
            "lat": 56.7584, 
            "lon": 61.414299
        }, 
        "name": "Beloyarskiy"
    }, 
    {
        "country": "RU", 
        "id": 1510514, 
        "coord": {
            "lat": 55.01778, 
            "lon": 88.489723
        }, 
        "name": "Belogorsk"
    }, 
    {
        "country": "RU", 
        "id": 1510697, 
        "coord": {
            "lat": 57.398109, 
            "lon": 63.76841
        }, 
        "name": "Baykalovo"
    }, 
    {
        "country": "RU", 
        "id": 1510709, 
        "coord": {
            "lat": 53.283329, 
            "lon": 80.76667
        }, 
        "name": "Bayevo"
    }, 
    {
        "country": "RU", 
        "id": 1510821, 
        "coord": {
            "lat": 54.956402, 
            "lon": 83.182198
        }, 
        "name": "Baryshevo"
    }, 
    {
        "country": "RU", 
        "id": 1510842, 
        "coord": {
            "lat": 61.166672, 
            "lon": 73.166672
        }, 
        "name": "Barsovo"
    }, 
    {
        "country": "RU", 
        "id": 1510960, 
        "coord": {
            "lat": 51, 
            "lon": 95.199997
        }, 
        "name": "Balgazyn"
    }, 
    {
        "country": "RU", 
        "id": 1510998, 
        "coord": {
            "lat": 55.380001, 
            "lon": 91.599998
        }, 
        "name": "Balakhta"
    }, 
    {
        "country": "RU", 
        "id": 1511135, 
        "coord": {
            "lat": 54.699718, 
            "lon": 73.023666
        }, 
        "name": "Azovo"
    }, 
    {
        "country": "RU", 
        "id": 1511146, 
        "coord": {
            "lat": 58.040119, 
            "lon": 64.789268
        }, 
        "name": "Azanka"
    }, 
    {
        "country": "RU", 
        "id": 1511217, 
        "coord": {
            "lat": 51.94532, 
            "lon": 85.801682
        }, 
        "name": "Aya"
    }, 
    {
        "country": "RU", 
        "id": 1511276, 
        "coord": {
            "lat": 55.103298, 
            "lon": 99.387497
        }, 
        "name": "Atagay"
    }, 
    {
        "country": "RU", 
        "id": 1511303, 
        "coord": {
            "lat": 53.137218, 
            "lon": 90.428329
        }, 
        "name": "Askiz"
    }, 
    {
        "country": "RU", 
        "id": 1511361, 
        "coord": {
            "lat": 54.1222, 
            "lon": 86.290901
        }, 
        "name": "Artyshta"
    }, 
    {
        "country": "RU", 
        "id": 1511364, 
        "coord": {
            "lat": 51.792782, 
            "lon": 87.276108
        }, 
        "name": "Artybash"
    }, 
    {
        "country": "RU", 
        "id": 1511382, 
        "coord": {
            "lat": 55.94611, 
            "lon": 67.673607
        }, 
        "name": "Armizonskoye"
    }, 
    {
        "country": "RU", 
        "id": 1511538, 
        "coord": {
            "lat": 57.106789, 
            "lon": 65.757553
        }, 
        "name": "Antipino"
    }, 
    {
        "country": "RU", 
        "id": 1511646, 
        "coord": {
            "lat": 62.514721, 
            "lon": 65.887779
        }, 
        "name": "Andra"
    }, 
    {
        "country": "RU", 
        "id": 1511709, 
        "coord": {
            "lat": 55.556198, 
            "lon": 98.664398
        }, 
        "name": "Alzamay"
    }, 
    {
        "country": "RU", 
        "id": 1511846, 
        "coord": {
            "lat": 56.740829, 
            "lon": 85.390556
        }, 
        "name": "Aleksandrovskoye"
    }, 
    {
        "country": "RU", 
        "id": 1511997, 
        "coord": {
            "lat": 50.299999, 
            "lon": 87.73333
        }, 
        "name": "Aktash"
    }, 
    {
        "country": "RU", 
        "id": 1512064, 
        "coord": {
            "lat": 51.183331, 
            "lon": 90.599998
        }, 
        "name": "Ak-Dovurak"
    }, 
    {
        "country": "RU", 
        "id": 1512101, 
        "coord": {
            "lat": 61.924721, 
            "lon": 63.02306
        }, 
        "name": "Agirish"
    }, 
    {
        "country": "RU", 
        "id": 1512102, 
        "coord": {
            "lat": 55.259998, 
            "lon": 94.900002
        }, 
        "name": "Aginskoye"
    }, 
    {
        "country": "RU", 
        "id": 1512210, 
        "coord": {
            "lat": 56.287479, 
            "lon": 70.455528
        }, 
        "name": "Abatskoye"
    }, 
    {
        "country": "RU", 
        "id": 1512218, 
        "coord": {
            "lat": 56.669998, 
            "lon": 96.059998
        }, 
        "name": "Aban"
    }, 
    {
        "country": "RU", 
        "id": 1512223, 
        "coord": {
            "lat": 58.128609, 
            "lon": 68.594437
        }, 
        "name": "Abalak"
    }, 
    {
        "country": "RU", 
        "id": 1512238, 
        "coord": {
            "lat": 53.730801, 
            "lon": 87.252602
        }, 
        "name": "Abagur"
    }, 
    {
        "country": "RU", 
        "id": 1536648, 
        "coord": {
            "lat": 56.790859, 
            "lon": 60.778889
        }, 
        "name": "Istok"
    }, 
    {
        "country": "RU", 
        "id": 1537749, 
        "coord": {
            "lat": 53.278889, 
            "lon": 91.840279
        }, 
        "name": "Ilichevo"
    }, 
    {
        "country": "RU", 
        "id": 1538638, 
        "coord": {
            "lat": 53.011799, 
            "lon": 60.568401
        }, 
        "name": "Lokomotivnyy"
    }, 
    {
        "country": "RU", 
        "id": 6267910, 
        "coord": {
            "lat": 56.099998, 
            "lon": 92.93
        }, 
        "name": "Badalyk"
    }, 
    {
        "country": "RU", 
        "id": 1538640, 
        "coord": {
            "lat": 58.039719, 
            "lon": 60.396111
        }, 
        "name": "Svobodnyy"
    }, 
    {
        "country": "RU", 
        "id": 1538642, 
        "coord": {
            "lat": 53.577702, 
            "lon": 83.757698
        }, 
        "name": "Sibirskiy"
    }, 
    {
        "country": "RU", 
        "id": 1539045, 
        "coord": {
            "lat": 61.195278, 
            "lon": 62.839722
        }, 
        "name": "Malinovskiy"
    }, 
    {
        "country": "RU", 
        "id": 1540484, 
        "coord": {
            "lat": 57.519718, 
            "lon": 79.515556
        }, 
        "name": "Kedrovyy"
    }, 
    {
        "country": "RU", 
        "id": 1540852, 
        "coord": {
            "lat": 55.055401, 
            "lon": 61.6031
        }, 
        "name": "Starokamyshinsk"
    }, 
    {
        "country": "RU", 
        "id": 1540853, 
        "coord": {
            "lat": 54.929169, 
            "lon": 60.762501
        }, 
        "name": "Timiryazevskiy"
    }, 
    {
        "country": "RU", 
        "id": 1540882, 
        "coord": {
            "lat": 55.060398, 
            "lon": 61.6054
        }, 
        "name": "Bazhovo"
    }, 
    {
        "country": "RU", 
        "id": 1540905, 
        "coord": {
            "lat": 55.309299, 
            "lon": 61.2635
        }, 
        "name": "Roshchino"
    }, 
    {
        "country": "RU", 
        "id": 1544583, 
        "coord": {
            "lat": 54.377499, 
            "lon": 60.004719
        }, 
        "name": "Uyskoye"
    }, 
    {
        "country": "RU", 
        "id": 2012349, 
        "coord": {
            "lat": 50.3643, 
            "lon": 108.751198
        }, 
        "name": "Krasnyy Chikoy"
    }, 
    {
        "country": "RU", 
        "id": 2012379, 
        "coord": {
            "lat": 56.749199, 
            "lon": 106.479897
        }, 
        "name": "Zvezdnyy"
    }, 
    {
        "country": "RU", 
        "id": 2012510, 
        "coord": {
            "lat": 52.824902, 
            "lon": 117.307602
        }, 
        "name": "Zhireken"
    }, 
    {
        "country": "RU", 
        "id": 2012530, 
        "coord": {
            "lat": 66.769722, 
            "lon": 123.371109
        }, 
        "name": "Zhigansk"
    }, 
    {
        "country": "RU", 
        "id": 2012532, 
        "coord": {
            "lat": 54.809719, 
            "lon": 105.157784
        }, 
        "name": "Zhigalovo"
    }, 
    {
        "country": "RU", 
        "id": 2012544, 
        "coord": {
            "lat": 51.6861, 
            "lon": 102.459
        }, 
        "name": "Zhemchug"
    }, 
    {
        "country": "RU", 
        "id": 2012561, 
        "coord": {
            "lat": 57.91222, 
            "lon": 102.765282
        }, 
        "name": "Zheleznodorozhnyy"
    }, 
    {
        "country": "RU", 
        "id": 2012570, 
        "coord": {
            "lat": 62.159439, 
            "lon": 129.829437
        }, 
        "name": "Zhatay"
    }, 
    {
        "country": "RU", 
        "id": 2012623, 
        "coord": {
            "lat": 43.459721, 
            "lon": 132.292221
        }, 
        "name": "Zavodskoy"
    }, 
    {
        "country": "RU", 
        "id": 2012655, 
        "coord": {
            "lat": 51.851391, 
            "lon": 107.51445
        }, 
        "name": "Zarechnyy"
    }, 
    {
        "country": "RU", 
        "id": 2012728, 
        "coord": {
            "lat": 50.3741, 
            "lon": 103.286301
        }, 
        "name": "Zakamensk"
    }, 
    {
        "country": "RU", 
        "id": 2012735, 
        "coord": {
            "lat": 51.833599, 
            "lon": 108.270302
        }, 
        "name": "Zaigrayevo"
    }, 
    {
        "country": "RU", 
        "id": 2012956, 
        "coord": {
            "lat": 61.276669, 
            "lon": 108.010834
        }, 
        "name": "Yerbogachen"
    }, 
    {
        "country": "RU", 
        "id": 2013030, 
        "coord": {
            "lat": 42.924999, 
            "lon": 133.047226
        }, 
        "name": "Yekaterinovka"
    }, 
    {
        "country": "RU", 
        "id": 2013032, 
        "coord": {
            "lat": 50.37336, 
            "lon": 129.113861
        }, 
        "name": "Yekaterinoslavka"
    }, 
    {
        "country": "RU", 
        "id": 2013089, 
        "coord": {
            "lat": 44.168331, 
            "lon": 132.207214
        }, 
        "name": "Yaroslavskiy"
    }, 
    {
        "country": "RU", 
        "id": 2013176, 
        "coord": {
            "lat": 44.424999, 
            "lon": 133.477219
        }, 
        "name": "Yakovlevka"
    }, 
    {
        "country": "RU", 
        "id": 2013216, 
        "coord": {
            "lat": 50.116669, 
            "lon": 139.149994
        }, 
        "name": "Vysokogornyy"
    }, 
    {
        "country": "RU", 
        "id": 2013272, 
        "coord": {
            "lat": 43.900002, 
            "lon": 131.949997
        }, 
        "name": "Vozdvizhenka"
    }, 
    {
        "country": "RU", 
        "id": 2013279, 
        "coord": {
            "lat": 46.485561, 
            "lon": 135.883331
        }, 
        "name": "Vostok"
    }, 
    {
        "country": "RU", 
        "id": 2013326, 
        "coord": {
            "lat": 48.56778, 
            "lon": 134.578323
        }, 
        "name": "Volochayevka Vtoraya"
    }, 
    {
        "country": "RU", 
        "id": 2013375, 
        "coord": {
            "lat": 59.451111, 
            "lon": 112.557777
        }, 
        "name": "Vitim"
    }, 
    {
        "country": "RU", 
        "id": 2013406, 
        "coord": {
            "lat": 56.408798, 
            "lon": 103.110603
        }, 
        "name": "Vidim"
    }, 
    {
        "country": "RU", 
        "id": 2013441, 
        "coord": {
            "lat": 51.301201, 
            "lon": 117.886803
        }, 
        "name": "Vershino-Shakhtaminskiy"
    }, 
    {
        "country": "RU", 
        "id": 2013459, 
        "coord": {
            "lat": 52.700001, 
            "lon": 115.166672
        }, 
        "name": "Verkh-Usugli"
    }, 
    {
        "country": "RU", 
        "id": 2013639, 
        "coord": {
            "lat": 63.445278, 
            "lon": 120.316673
        }, 
        "name": "Verkhnevilyuysk"
    }, 
    {
        "country": "RU", 
        "id": 2013921, 
        "coord": {
            "lat": 70.01667, 
            "lon": 135.600006
        }, 
        "name": "Ust-Kuyga"
    }, 
    {
        "country": "RU", 
        "id": 2013942, 
        "coord": {
            "lat": 52.701099, 
            "lon": 118.807701
        }, 
        "name": "Ust-Karsk"
    }, 
    {
        "country": "RU", 
        "id": 2014038, 
        "coord": {
            "lat": 52.783329, 
            "lon": 126.533333
        }, 
        "name": "Ushumun"
    }, 
    {
        "country": "RU", 
        "id": 2014369, 
        "coord": {
            "lat": 51.357201, 
            "lon": 112.484901
        }, 
        "name": "Ulety"
    }, 
    {
        "country": "RU", 
        "id": 2014694, 
        "coord": {
            "lat": 50.083328, 
            "lon": 132.166672
        }, 
        "name": "Tyrma"
    }, 
    {
        "country": "RU", 
        "id": 2014705, 
        "coord": {
            "lat": 53.67028, 
            "lon": 102.310562
        }, 
        "name": "Tyret Pervaya"
    }, 
    {
        "country": "RU", 
        "id": 2014743, 
        "coord": {
            "lat": 53.116669, 
            "lon": 126.333328
        }, 
        "name": "Tygda"
    }, 
    {
        "country": "RU", 
        "id": 2015136, 
        "coord": {
            "lat": 48.499439, 
            "lon": 135.197495
        }, 
        "name": "Topolevo"
    }, 
    {
        "country": "RU", 
        "id": 2015179, 
        "coord": {
            "lat": 58.95639, 
            "lon": 126.292503
        }, 
        "name": "Tommot"
    }, 
    {
        "country": "RU", 
        "id": 2015217, 
        "coord": {
            "lat": 53.133331, 
            "lon": 132.899994
        }, 
        "name": "Tokur"
    }, 
    {
        "country": "RU", 
        "id": 2015428, 
        "coord": {
            "lat": 52.869171, 
            "lon": 103.460831
        }, 
        "name": "Tayturka"
    }, 
    {
        "country": "RU", 
        "id": 2015469, 
        "coord": {
            "lat": 53.700199, 
            "lon": 102.7117
        }, 
        "name": "Novonukutskiy"
    }, 
    {
        "country": "RU", 
        "id": 2015545, 
        "coord": {
            "lat": 51.48032, 
            "lon": 107.360199
        }, 
        "name": "Tarbagatay"
    }, 
    {
        "country": "RU", 
        "id": 2015547, 
        "coord": {
            "lat": 51.174702, 
            "lon": 109.093102
        }, 
        "name": "Tarbagatay"
    }, 
    {
        "country": "RU", 
        "id": 2015686, 
        "coord": {
            "lat": 50.316669, 
            "lon": 130.366669
        }, 
        "name": "Talakan"
    }, 
    {
        "country": "RU", 
        "id": 2015707, 
        "coord": {
            "lat": 54.099998, 
            "lon": 123.566673
        }, 
        "name": "Takhtamygda"
    }, 
    {
        "country": "RU", 
        "id": 2015842, 
        "coord": {
            "lat": 53.085831, 
            "lon": 103.332497
        }, 
        "name": "Svirsk"
    }, 
    {
        "country": "RU", 
        "id": 2015852, 
        "coord": {
            "lat": 46.538891, 
            "lon": 138.329727
        }, 
        "name": "Svetlaya"
    }, 
    {
        "country": "RU", 
        "id": 2015913, 
        "coord": {
            "lat": 62.14444, 
            "lon": 117.631943
        }, 
        "name": "Suntar"
    }, 
    {
        "country": "RU", 
        "id": 2016110, 
        "coord": {
            "lat": 52.2453, 
            "lon": 117.709297
        }, 
        "name": "Sretensk"
    }, 
    {
        "country": "RU", 
        "id": 2016170, 
        "coord": {
            "lat": 50.659439, 
            "lon": 128.010559
        }, 
        "name": "Srednebelaya"
    }, 
    {
        "country": "RU", 
        "id": 2016183, 
        "coord": {
            "lat": 44.610828, 
            "lon": 132.796936
        }, 
        "name": "Spasskoye"
    }, 
    {
        "country": "RU", 
        "id": 2016205, 
        "coord": {
            "lat": 51.88446, 
            "lon": 107.479073
        }, 
        "name": "Sotnikovo"
    }, 
    {
        "country": "RU", 
        "id": 2016216, 
        "coord": {
            "lat": 52.524899, 
            "lon": 111.541801
        }, 
        "name": "Sosnovo-Ozerskoye"
    }, 
    {
        "country": "RU", 
        "id": 2016277, 
        "coord": {
            "lat": 54.23333, 
            "lon": 124.433327
        }, 
        "name": "Solovevsk"
    }, 
    {
        "country": "RU", 
        "id": 2016305, 
        "coord": {
            "lat": 60.416672, 
            "lon": 137.5
        }, 
        "name": "Solnechnyy"
    }, 
    {
        "country": "RU", 
        "id": 2016307, 
        "coord": {
            "lat": 50.72139, 
            "lon": 136.631943
        }, 
        "name": "Solnechnyy"
    }, 
    {
        "country": "RU", 
        "id": 2016308, 
        "coord": {
            "lat": 50.583328, 
            "lon": 137.033325
        }, 
        "name": "Solnechnyy"
    }, 
    {
        "country": "RU", 
        "id": 2016402, 
        "coord": {
            "lat": 43.295559, 
            "lon": 132.467499
        }, 
        "name": "Smolyaninovo"
    }, 
    {
        "country": "RU", 
        "id": 2016405, 
        "coord": {
            "lat": 52.135231, 
            "lon": 113.497398
        }, 
        "name": "Smolenka"
    }, 
    {
        "country": "RU", 
        "id": 2016430, 
        "coord": {
            "lat": 42.863331, 
            "lon": 131.38472
        }, 
        "name": "Slavyanka"
    }, 
    {
        "country": "RU", 
        "id": 2016474, 
        "coord": {
            "lat": 44.476669, 
            "lon": 132.363892
        }, 
        "name": "Sivakovka"
    }, 
    {
        "country": "RU", 
        "id": 2016477, 
        "coord": {
            "lat": 52.633331, 
            "lon": 126.75
        }, 
        "name": "Sivaki"
    }, 
    {
        "country": "RU", 
        "id": 2016628, 
        "coord": {
            "lat": 43.38306, 
            "lon": 132.37056
        }, 
        "name": "Shtykovo"
    }, 
    {
        "country": "RU", 
        "id": 2016651, 
        "coord": {
            "lat": 43.33194, 
            "lon": 132.362503
        }, 
        "name": "Shkotovo"
    }, 
    {
        "country": "RU", 
        "id": 2016680, 
        "coord": {
            "lat": 49.757999, 
            "lon": 129.522995
        }, 
        "name": "Shirokiy"
    }, 
    {
        "country": "RU", 
        "id": 2016733, 
        "coord": {
            "lat": 56.491501, 
            "lon": 103.959999
        }, 
        "name": "Shestakovo"
    }, 
    {
        "country": "RU", 
        "id": 2016757, 
        "coord": {
            "lat": 51.651402, 
            "lon": 117.559898
        }, 
        "name": "Shelopugino"
    }, 
    {
        "country": "RU", 
        "id": 2016907, 
        "coord": {
            "lat": 56.14806, 
            "lon": 113.426666
        }, 
        "name": "Severomuysk"
    }, 
    {
        "country": "RU", 
        "id": 2016942, 
        "coord": {
            "lat": 51.09333, 
            "lon": 128.378616
        }, 
        "name": "Seryshevo"
    }, 
    {
        "country": "RU", 
        "id": 2016961, 
        "coord": {
            "lat": 43.339169, 
            "lon": 133.348053
        }, 
        "name": "Sergeyevka"
    }, 
    {
        "country": "RU", 
        "id": 2017042, 
        "coord": {
            "lat": 50.367161, 
            "lon": 137.499573
        }, 
        "name": "Selikhino"
    }, 
    {
        "country": "RU", 
        "id": 2017063, 
        "coord": {
            "lat": 50.913059, 
            "lon": 106.240562
        }, 
        "name": "Selenduma"
    }, 
    {
        "country": "RU", 
        "id": 2017155, 
        "coord": {
            "lat": 71.916672, 
            "lon": 114.083328
        }, 
        "name": "Saskylakh"
    }, 
    {
        "country": "RU", 
        "id": 2017364, 
        "coord": {
            "lat": 43.014721, 
            "lon": 131.864166
        }, 
        "name": "Russkiy"
    }, 
    {
        "country": "RU", 
        "id": 2017377, 
        "coord": {
            "lat": 44.28278, 
            "lon": 134.959442
        }, 
        "name": "Rudnyy"
    }, 
    {
        "country": "RU", 
        "id": 2017378, 
        "coord": {
            "lat": 57.263901, 
            "lon": 103.7519
        }, 
        "name": "Rudnogorsk"
    }, 
    {
        "country": "RU", 
        "id": 2017384, 
        "coord": {
            "lat": 44.361401, 
            "lon": 135.8116
        }, 
        "name": "Rudnaya Pristan"
    }, 
    {
        "country": "RU", 
        "id": 2017409, 
        "coord": {
            "lat": 50.724979, 
            "lon": 129.289383
        }, 
        "name": "Romny"
    }, 
    {
        "country": "RU", 
        "id": 2017478, 
        "coord": {
            "lat": 43.549999, 
            "lon": 131.916672
        }, 
        "name": "Razdolnoye"
    }, 
    {
        "country": "RU", 
        "id": 2017537, 
        "coord": {
            "lat": 42.861938, 
            "lon": 132.417221
        }, 
        "name": "Putyatin"
    }, 
    {
        "country": "RU", 
        "id": 2017626, 
        "coord": {
            "lat": 43.098331, 
            "lon": 131.587494
        }, 
        "name": "Primorskiy"
    }, 
    {
        "country": "RU", 
        "id": 2017632, 
        "coord": {
            "lat": 51.933331, 
            "lon": 116.633331
        }, 
        "name": "Priiskovyy"
    }, 
    {
        "country": "RU", 
        "id": 2017646, 
        "coord": {
            "lat": 50.369099, 
            "lon": 119.101196
        }, 
        "name": "Priargunsk"
    }, 
    {
        "country": "RU", 
        "id": 2017648, 
        "coord": {
            "lat": 48.521671, 
            "lon": 134.902786
        }, 
        "name": "Priamurskiy"
    }, 
    {
        "country": "RU", 
        "id": 2017658, 
        "coord": {
            "lat": 42.901939, 
            "lon": 133.906387
        }, 
        "name": "Preobrazheniye"
    }, 
    {
        "country": "RU", 
        "id": 2017756, 
        "coord": {
            "lat": 42.960281, 
            "lon": 131.722778
        }, 
        "name": "Popova"
    }, 
    {
        "country": "RU", 
        "id": 2017842, 
        "coord": {
            "lat": 55.525829, 
            "lon": 101.053612
        }, 
        "name": "Pokosnoye"
    }, 
    {
        "country": "RU", 
        "id": 2017851, 
        "coord": {
            "lat": 44.406391, 
            "lon": 131.376938
        }, 
        "name": "Pogranichnyy"
    }, 
    {
        "country": "RU", 
        "id": 2017979, 
        "coord": {
            "lat": 50.611401, 
            "lon": 105.319603
        }, 
        "name": "Petropavlovka"
    }, 
    {
        "country": "RU", 
        "id": 2018021, 
        "coord": {
            "lat": 51.670132, 
            "lon": 115.625427
        }, 
        "name": "Pervomayskiy"
    }, 
    {
        "country": "RU", 
        "id": 2018069, 
        "coord": {
            "lat": 59.628891, 
            "lon": 112.740562
        }, 
        "name": "Peleduy"
    }, 
    {
        "country": "RU", 
        "id": 2018207, 
        "coord": {
            "lat": 52.586109, 
            "lon": 104.455559
        }, 
        "name": "Oyek"
    }, 
    {
        "country": "RU", 
        "id": 2018214, 
        "coord": {
            "lat": 53.583328, 
            "lon": 126.883331
        }, 
        "name": "Ovsyanka"
    }, 
    {
        "country": "RU", 
        "id": 2018301, 
        "coord": {
            "lat": 53.387218, 
            "lon": 103.876938
        }, 
        "name": "Osa"
    }, 
    {
        "country": "RU", 
        "id": 2018365, 
        "coord": {
            "lat": 51.033329, 
            "lon": 114.833328
        }, 
        "name": "Orlovskiy"
    }, 
    {
        "country": "RU", 
        "id": 2018436, 
        "coord": {
            "lat": 51.931999, 
            "lon": 108.074699
        }, 
        "name": "Onokhoy"
    }, 
    {
        "country": "RU", 
        "id": 2018567, 
        "coord": {
            "lat": 68.509247, 
            "lon": 112.469101
        }, 
        "name": "Olenek"
    }, 
    {
        "country": "RU", 
        "id": 2018813, 
        "coord": {
            "lat": 56.157219, 
            "lon": 111.705559
        }, 
        "name": "Novyy Uoyan"
    }, 
    {
        "country": "RU", 
        "id": 2018857, 
        "coord": {
            "lat": 44.235001, 
            "lon": 133.364166
        }, 
        "name": "Novosysoyevka"
    }, 
    {
        "country": "RU", 
        "id": 2018864, 
        "coord": {
            "lat": 44.025002, 
            "lon": 132.151382
        }, 
        "name": "Novoshakhtinskiy"
    }, 
    {
        "country": "RU", 
        "id": 2018888, 
        "coord": {
            "lat": 45.853062, 
            "lon": 134.508896
        }, 
        "name": "Novopokrovka"
    }, 
    {
        "country": "RU", 
        "id": 2018896, 
        "coord": {
            "lat": 51.217201, 
            "lon": 109.209099
        }, 
        "name": "Novopavlovka"
    }, 
    {
        "country": "RU", 
        "id": 2018925, 
        "coord": {
            "lat": 51.783329, 
            "lon": 113.76667
        }, 
        "name": "Novokruchininskiy"
    }, 
    {
        "country": "RU", 
        "id": 2018930, 
        "coord": {
            "lat": 51.6115, 
            "lon": 109.591698
        }, 
        "name": "Novokizhinginsk"
    }, 
    {
        "country": "RU", 
        "id": 2018964, 
        "coord": {
            "lat": 49.798, 
            "lon": 129.877396
        }, 
        "name": "Novobureyskiy"
    }, 
    {
        "country": "RU", 
        "id": 2019004, 
        "coord": {
            "lat": 57.1334, 
            "lon": 103.911201
        }, 
        "name": "Novaya Igirma"
    }, 
    {
        "country": "RU", 
        "id": 2019009, 
        "coord": {
            "lat": 51.7159, 
            "lon": 108.269096
        }, 
        "name": "Novaya Bryan"
    }, 
    {
        "country": "RU", 
        "id": 2019118, 
        "coord": {
            "lat": 50.51667, 
            "lon": 115.133331
        }, 
        "name": "Nizhniy Tsasuchey"
    }, 
    {
        "country": "RU", 
        "id": 2019135, 
        "coord": {
            "lat": 58.835281, 
            "lon": 125.486938
        }, 
        "name": "Nizhniy Kuranakh"
    }, 
    {
        "country": "RU", 
        "id": 2019167, 
        "coord": {
            "lat": 61.959438, 
            "lon": 129.908615
        }, 
        "name": "Nizhniy Bestyakh"
    }, 
    {
        "country": "RU", 
        "id": 2019296, 
        "coord": {
            "lat": 53.98333, 
            "lon": 124.166672
        }, 
        "name": "Never"
    }, 
    {
        "country": "RU", 
        "id": 2019323, 
        "coord": {
            "lat": 51.3088, 
            "lon": 119.610001
        }, 
        "name": "Nerchinskiy Zavod"
    }, 
    {
        "country": "RU", 
        "id": 2019388, 
        "coord": {
            "lat": 48.352501, 
            "lon": 135.232498
        }, 
        "name": "Nekrasovka"
    }, 
    {
        "country": "RU", 
        "id": 2019429, 
        "coord": {
            "lat": 50.382778, 
            "lon": 106.10556
        }, 
        "name": "Naushki"
    }, 
    {
        "country": "RU", 
        "id": 2019710, 
        "coord": {
            "lat": 51.049858, 
            "lon": 107.829971
        }, 
        "name": "Mukhorshibir"
    }, 
    {
        "country": "RU", 
        "id": 2019718, 
        "coord": {
            "lat": 48.099998, 
            "lon": 136.100006
        }, 
        "name": "Mukhen"
    }, 
    {
        "country": "RU", 
        "id": 2019867, 
        "coord": {
            "lat": 61.46806, 
            "lon": 128.920273
        }, 
        "name": "Mokhsogollokh"
    }, 
    {
        "country": "RU", 
        "id": 2019884, 
        "coord": {
            "lat": 51.7435, 
            "lon": 111.960602
        }, 
        "name": "Mogzon"
    }, 
    {
        "country": "RU", 
        "id": 2019935, 
        "coord": {
            "lat": 53.93528, 
            "lon": 139.924164
        }, 
        "name": "Mnogovershinnyy"
    }, 
    {
        "country": "RU", 
        "id": 2019936, 
        "coord": {
            "lat": 43.46917, 
            "lon": 132.438889
        }, 
        "name": "Mnogoudobnoye"
    }, 
    {
        "country": "RU", 
        "id": 2019945, 
        "coord": {
            "lat": 52.857498, 
            "lon": 103.171944
        }, 
        "name": "Mishelevka"
    }, 
    {
        "country": "RU", 
        "id": 2020208, 
        "coord": {
            "lat": 57.32056, 
            "lon": 107.088058
        }, 
        "name": "Markovo"
    }, 
    {
        "country": "RU", 
        "id": 2020311, 
        "coord": {
            "lat": 57.816109, 
            "lon": 114.002777
        }, 
        "name": "Mamakan"
    }, 
    {
        "country": "RU", 
        "id": 2020559, 
        "coord": {
            "lat": 51.75325, 
            "lon": 113.945396
        }, 
        "name": "Makkaveyevo"
    }, 
    {
        "country": "RU", 
        "id": 2020584, 
        "coord": {
            "lat": 56.172501, 
            "lon": 107.445831
        }, 
        "name": "Magistralnyy"
    }, 
    {
        "country": "RU", 
        "id": 2020595, 
        "coord": {
            "lat": 62.105282, 
            "lon": 129.527786
        }, 
        "name": "Magan"
    }, 
    {
        "country": "RU", 
        "id": 2020626, 
        "coord": {
            "lat": 44.334999, 
            "lon": 131.656113
        }, 
        "name": "Sergeyevka"
    }, 
    {
        "country": "RU", 
        "id": 2020687, 
        "coord": {
            "lat": 44.28722, 
            "lon": 132.256393
        }, 
        "name": "Luchki"
    }, 
    {
        "country": "RU", 
        "id": 2020707, 
        "coord": {
            "lat": 49.033329, 
            "lon": 131.983337
        }, 
        "name": "Londoko"
    }, 
    {
        "country": "RU", 
        "id": 2020738, 
        "coord": {
            "lat": 49.236111, 
            "lon": 135.174164
        }, 
        "name": "Litovko"
    }, 
    {
        "country": "RU", 
        "id": 2020744, 
        "coord": {
            "lat": 51.8535, 
            "lon": 104.869301
        }, 
        "name": "Listvyanka"
    }, 
    {
        "country": "RU", 
        "id": 2020752, 
        "coord": {
            "lat": 44.201389, 
            "lon": 131.724442
        }, 
        "name": "Lipovtsy"
    }, 
    {
        "country": "RU", 
        "id": 2020824, 
        "coord": {
            "lat": 47.145279, 
            "lon": 134.338333
        }, 
        "name": "Lermontovka"
    }, 
    {
        "country": "RU", 
        "id": 2020848, 
        "coord": {
            "lat": 58.577782, 
            "lon": 125.430557
        }, 
        "name": "Leninskiy"
    }, 
    {
        "country": "RU", 
        "id": 2020871, 
        "coord": {
            "lat": 58.51667, 
            "lon": 125.51667
        }, 
        "name": "Lebedinyy"
    }, 
    {
        "country": "RU", 
        "id": 2020887, 
        "coord": {
            "lat": 45.871941, 
            "lon": 133.655823
        }, 
        "name": "Lazo"
    }, 
    {
        "country": "RU", 
        "id": 2020888, 
        "coord": {
            "lat": 43.381672, 
            "lon": 133.901382
        }, 
        "name": "Lazo"
    }, 
    {
        "country": "RU", 
        "id": 2021017, 
        "coord": {
            "lat": 63.898609, 
            "lon": 122.761673
        }, 
        "name": "Kysyl-Syr"
    }, 
    {
        "country": "RU", 
        "id": 2021031, 
        "coord": {
            "lat": 51.6828, 
            "lon": 102.1408
        }, 
        "name": "Kyren"
    }, 
    {
        "country": "RU", 
        "id": 2021041, 
        "coord": {
            "lat": 49.577599, 
            "lon": 111.975304
        }, 
        "name": "Kyra"
    }, 
    {
        "country": "RU", 
        "id": 2021207, 
        "coord": {
            "lat": 51.199051, 
            "lon": 113.715988
        }, 
        "name": "Kurort-Darasun"
    }, 
    {
        "country": "RU", 
        "id": 2021370, 
        "coord": {
            "lat": 49.216671, 
            "lon": 131.633331
        }, 
        "name": "Kuldur"
    }, 
    {
        "country": "RU", 
        "id": 2021434, 
        "coord": {
            "lat": 50.15472, 
            "lon": 107.40139
        }, 
        "name": "Kudara-Somon"
    }, 
    {
        "country": "RU", 
        "id": 2021504, 
        "coord": {
            "lat": 58.509441, 
            "lon": 115.321671
        }, 
        "name": "Kropotkin"
    }, 
    {
        "country": "RU", 
        "id": 2021613, 
        "coord": {
            "lat": 44.626499, 
            "lon": 135.353195
        }, 
        "name": "Krasnorechenskiy"
    }, 
    {
        "country": "RU", 
        "id": 2021766, 
        "coord": {
            "lat": 48.21833, 
            "lon": 135.056396
        }, 
        "name": "Korfovskiy"
    }, 
    {
        "country": "RU", 
        "id": 2021799, 
        "coord": {
            "lat": 49.616669, 
            "lon": 127.98333
        }, 
        "name": "Konstantinovka"
    }, 
    {
        "country": "RU", 
        "id": 2021908, 
        "coord": {
            "lat": 52.203701, 
            "lon": 117.552902
        }, 
        "name": "Kokuy"
    }, 
    {
        "country": "RU", 
        "id": 2021954, 
        "coord": {
            "lat": 48.464169, 
            "lon": 135.456665
        }, 
        "name": "Knyaze-Volkonskoye"
    }, 
    {
        "country": "RU", 
        "id": 2021980, 
        "coord": {
            "lat": 53.5317, 
            "lon": 119.451897
        }, 
        "name": "Klyuchevskiy"
    }, 
    {
        "country": "RU", 
        "id": 2021992, 
        "coord": {
            "lat": 50.445702, 
            "lon": 117.996002
        }, 
        "name": "Klichka"
    }, 
    {
        "country": "RU", 
        "id": 2022003, 
        "coord": {
            "lat": 51.846199, 
            "lon": 109.909698
        }, 
        "name": "Kizhinga"
    }, 
    {
        "country": "RU", 
        "id": 2022024, 
        "coord": {
            "lat": 52.599998, 
            "lon": 103.900002
        }, 
        "name": "Kitoy"
    }, 
    {
        "country": "RU", 
        "id": 2022143, 
        "coord": {
            "lat": 53.19389, 
            "lon": 107.339722
        }, 
        "name": "Khuzhir"
    }, 
    {
        "country": "RU", 
        "id": 2022174, 
        "coord": {
            "lat": 50.407219, 
            "lon": 136.881943
        }, 
        "name": "Khurba"
    }, 
    {
        "country": "RU", 
        "id": 2022232, 
        "coord": {
            "lat": 56.703201, 
            "lon": 104.249397
        }, 
        "name": "Khrebtovaya"
    }, 
    {
        "country": "RU", 
        "id": 2022304, 
        "coord": {
            "lat": 52.165699, 
            "lon": 109.772598
        }, 
        "name": "Khorinsk"
    }, 
    {
        "country": "RU", 
        "id": 2022317, 
        "coord": {
            "lat": 47.886108, 
            "lon": 134.946396
        }, 
        "name": "Khor"
    }, 
    {
        "country": "RU", 
        "id": 2022342, 
        "coord": {
            "lat": 52.465832, 
            "lon": 104.402496
        }, 
        "name": "Khomutovo"
    }, 
    {
        "country": "RU", 
        "id": 2022369, 
        "coord": {
            "lat": 50.2981, 
            "lon": 103.3097
        }, 
        "name": "Kholtoson"
    }, 
    {
        "country": "RU", 
        "id": 2022394, 
        "coord": {
            "lat": 51.883331, 
            "lon": 116.25
        }, 
        "name": "Kholbon"
    }, 
    {
        "country": "RU", 
        "id": 2022454, 
        "coord": {
            "lat": 49.116669, 
            "lon": 131.183334
        }, 
        "name": "Khingansk"
    }, 
    {
        "country": "RU", 
        "id": 2022463, 
        "coord": {
            "lat": 51.367401, 
            "lon": 110.467598
        }, 
        "name": "Khilok"
    }, 
    {
        "country": "RU", 
        "id": 2022773, 
        "coord": {
            "lat": 62.666672, 
            "lon": 135.600006
        }, 
        "name": "Khandyga"
    }, 
    {
        "country": "RU", 
        "id": 2023029, 
        "coord": {
            "lat": 56.26667, 
            "lon": 107.580002
        }, 
        "name": "Kazachinskoye"
    }, 
    {
        "country": "RU", 
        "id": 2023094, 
        "coord": {
            "lat": 51.616669, 
            "lon": 114.349998
        }, 
        "name": "Karymskoye"
    }, 
    {
        "country": "RU", 
        "id": 2023190, 
        "coord": {
            "lat": 62.34639, 
            "lon": 129.962784
        }, 
        "name": "Kangalassy"
    }, 
    {
        "country": "RU", 
        "id": 2023249, 
        "coord": {
            "lat": 44.45694, 
            "lon": 136.012222
        }, 
        "name": "Kamenka"
    }, 
    {
        "country": "RU", 
        "id": 2023286, 
        "coord": {
            "lat": 50.925098, 
            "lon": 118.898003
        }, 
        "name": "Kalga"
    }, 
    {
        "country": "RU", 
        "id": 2023298, 
        "coord": {
            "lat": 51.01667, 
            "lon": 116.51667
        }, 
        "name": "Kalanguy"
    }, 
    {
        "country": "RU", 
        "id": 2023324, 
        "coord": {
            "lat": 50.932701, 
            "lon": 119.2911
        }, 
        "name": "Kadaya"
    }, 
    {
        "country": "RU", 
        "id": 2023333, 
        "coord": {
            "lat": 53.96056, 
            "lon": 105.881668
        }, 
        "name": "Kachug"
    }, 
    {
        "country": "RU", 
        "id": 2023360, 
        "coord": {
            "lat": 48.98333, 
            "lon": 131.550003
        }, 
        "name": "Izvestkovyy"
    }, 
    {
        "country": "RU", 
        "id": 2023377, 
        "coord": {
            "lat": 51.749191, 
            "lon": 107.283737
        }, 
        "name": "Ivolginsk"
    }, 
    {
        "country": "RU", 
        "id": 2023427, 
        "coord": {
            "lat": 52.09528, 
            "lon": 106.247498
        }, 
        "name": "Istok"
    }, 
    {
        "country": "RU", 
        "id": 2023584, 
        "coord": {
            "lat": 52.420101, 
            "lon": 136.485306
        }, 
        "name": "Imeni Poliny Osipenko"
    }, 
    {
        "country": "RU", 
        "id": 2023778, 
        "coord": {
            "lat": 51.114441, 
            "lon": 106.261391
        }, 
        "name": "Gusinoye Ozero"
    }, 
    {
        "country": "RU", 
        "id": 2023918, 
        "coord": {
            "lat": 45.25, 
            "lon": 133.5
        }, 
        "name": "Gornyye Klyuchi"
    }, 
    {
        "country": "RU", 
        "id": 2023920, 
        "coord": {
            "lat": 50.75, 
            "lon": 136.399994
        }, 
        "name": "Gornyy"
    }, 
    {
        "country": "RU", 
        "id": 2023929, 
        "coord": {
            "lat": 44.262402, 
            "lon": 135.113297
        }, 
        "name": "Gornorechenskiy"
    }, 
    {
        "country": "RU", 
        "id": 2023943, 
        "coord": {
            "lat": 51.19833, 
            "lon": 136.666946
        }, 
        "name": "Gorin"
    }, 
    {
        "country": "RU", 
        "id": 2024122, 
        "coord": {
            "lat": 51.546101, 
            "lon": 118.326599
        }, 
        "name": "Gazimurskiy Zavod"
    }, 
    {
        "country": "RU", 
        "id": 2024461, 
        "coord": {
            "lat": 53.066669, 
            "lon": 132.966675
        }, 
        "name": "Ekimchan"
    }, 
    {
        "country": "RU", 
        "id": 2024579, 
        "coord": {
            "lat": 50.677219, 
            "lon": 106.180557
        }, 
        "name": "Dzhida"
    }, 
    {
        "country": "RU", 
        "id": 2024626, 
        "coord": {
            "lat": 62.216671, 
            "lon": 135.800003
        }, 
        "name": "Dzhebariki-Khaya"
    }, 
    {
        "country": "RU", 
        "id": 2024812, 
        "coord": {
            "lat": 50.676109, 
            "lon": 113.593063
        }, 
        "name": "Duldurga"
    }, 
    {
        "country": "RU", 
        "id": 2024848, 
        "coord": {
            "lat": 51.583328, 
            "lon": 113.033333
        }, 
        "name": "Drovyanaya"
    }, 
    {
        "country": "RU", 
        "id": 2024858, 
        "coord": {
            "lat": 44.335831, 
            "lon": 133.498062
        }, 
        "name": "Dostoyevka"
    }, 
    {
        "country": "RU", 
        "id": 2024893, 
        "coord": {
            "lat": 51.897121, 
            "lon": 113.157303
        }, 
        "name": "Domna"
    }, 
    {
        "country": "RU", 
        "id": 2025121, 
        "coord": {
            "lat": 51.666672, 
            "lon": 114
        }, 
        "name": "Darasun"
    }, 
    {
        "country": "RU", 
        "id": 2025241, 
        "coord": {
            "lat": 62.002499, 
            "lon": 132.432495
        }, 
        "name": "Churapcha"
    }, 
    {
        "country": "RU", 
        "id": 2025256, 
        "coord": {
            "lat": 54.71833, 
            "lon": 135.315002
        }, 
        "name": "Chumikan"
    }, 
    {
        "country": "RU", 
        "id": 2025286, 
        "coord": {
            "lat": 44.165279, 
            "lon": 133.863327
        }, 
        "name": "Chuguyevka"
    }, 
    {
        "country": "RU", 
        "id": 2025325, 
        "coord": {
            "lat": 44.839169, 
            "lon": 133.04361
        }, 
        "name": "Chkalovskoye"
    }, 
    {
        "country": "RU", 
        "id": 2025456, 
        "coord": {
            "lat": 63.012779, 
            "lon": 112.47139
        }, 
        "name": "Chernyshevskiy"
    }, 
    {
        "country": "RU", 
        "id": 2025458, 
        "coord": {
            "lat": 52.5243, 
            "lon": 117.017403
        }, 
        "name": "Chernyshevsk"
    }, 
    {
        "country": "RU", 
        "id": 2025460, 
        "coord": {
            "lat": 44.19389, 
            "lon": 133.118896
        }, 
        "name": "Chernyshevka"
    }, 
    {
        "country": "RU", 
        "id": 2026023, 
        "coord": {
            "lat": 52.98333, 
            "lon": 116.916672
        }, 
        "name": "Bukachacha"
    }, 
    {
        "country": "RU", 
        "id": 2026160, 
        "coord": {
            "lat": 62.668331, 
            "lon": 131.168335
        }, 
        "name": "Borogontsy"
    }, 
    {
        "country": "RU", 
        "id": 2026544, 
        "coord": {
            "lat": 53.153, 
            "lon": 103.7714
        }, 
        "name": "Bokhan"
    }, 
    {
        "country": "RU", 
        "id": 2026657, 
        "coord": {
            "lat": 49.01667, 
            "lon": 131.699997
        }, 
        "name": "Birakan"
    }, 
    {
        "country": "RU", 
        "id": 2026659, 
        "coord": {
            "lat": 49, 
            "lon": 132.466675
        }, 
        "name": "Bira"
    }, 
    {
        "country": "RU", 
        "id": 2026708, 
        "coord": {
            "lat": 50.588058, 
            "lon": 107.602219
        }, 
        "name": "Bichura"
    }, 
    {
        "country": "RU", 
        "id": 2026786, 
        "coord": {
            "lat": 51.666672, 
            "lon": 135.699997
        }, 
        "name": "Berezovyy"
    }, 
    {
        "country": "RU", 
        "id": 2027002, 
        "coord": {
            "lat": 50.697701, 
            "lon": 103.465599
        }, 
        "name": "Bayangol"
    }, 
    {
        "country": "RU", 
        "id": 2027004, 
        "coord": {
            "lat": 53.066109, 
            "lon": 105.513893
        }, 
        "name": "Bayanday"
    }, 
    {
        "country": "RU", 
        "id": 2027042, 
        "coord": {
            "lat": 67.80056, 
            "lon": 130.411392
        }, 
        "name": "Batagay-Alyta"
    }, 
    {
        "country": "RU", 
        "id": 2027044, 
        "coord": {
            "lat": 67.633331, 
            "lon": 134.633331
        }, 
        "name": "Batagay"
    }, 
    {
        "country": "RU", 
        "id": 2027173, 
        "coord": {
            "lat": 51.1507, 
            "lon": 108.920998
        }, 
        "name": "Balyaga"
    }, 
    {
        "country": "RU", 
        "id": 2027184, 
        "coord": {
            "lat": 51.599998, 
            "lon": 116.633331
        }, 
        "name": "Baley"
    }, 
    {
        "country": "RU", 
        "id": 2027196, 
        "coord": {
            "lat": 58.010559, 
            "lon": 114.276939
        }, 
        "name": "Balakhninskiy"
    }, 
    {
        "country": "RU", 
        "id": 2027198, 
        "coord": {
            "lat": 54.010281, 
            "lon": 103.054443
        }, 
        "name": "Balagansk"
    }, 
    {
        "country": "RU", 
        "id": 2027244, 
        "coord": {
            "lat": 54.433331, 
            "lon": 113.599998
        }, 
        "name": "Bagdarin"
    }, 
    {
        "country": "RU", 
        "id": 2027275, 
        "coord": {
            "lat": 51.391998, 
            "lon": 109.871696
        }, 
        "name": "Bada"
    },